City,Country,Cloudiness,Date,Humidity,Lat,Lng,Max Temp,Wind Speed
venado tuerto,ar,0.0,1536187856.0,47.0,-33.75,-61.97,67.37,15.82
martapura,id,8.0,1536187856.0,99.0,-3.41,114.85,77.9,4.18
jamestown,sh,68.0,1536187856.0,74.0,-33.21,138.6,51.8,11.34
barrow,us,20.0,1536187683.0,48.0,-38.31,-60.23,68.09,17.49
rikitea,pf,48.0,1536187857.0,100.0,-23.12,-134.97,72.14,27.78
tura,ru,92.0,1536187857.0,95.0,25.52,90.21,77.27,2.95
butaritari,ki,64.0,1536187857.0,100.0,3.07,172.79,84.65,11.79
albany,au,20.0,1536184440.0,54.0,42.65,-73.75,89.96,12.75
de-kastri,ru,0.0,1536187915.0,89.0,51.48,140.77,60.71,18.05
hithadhoo,mv,92.0,1536187858.0,100.0,-0.6,73.08,75.11,7.99
trinidad,co,0.0,1536187858.0,62.0,-33.52,-56.9,61.34,12.68
sol-iletsk,ru,36.0,1536187859.0,73.0,51.16,55.0,46.94,5.3
castro,cl,92.0,1536187859.0,100.0,-42.48,-73.76,44.42,17.27
broken hill,au,44.0,1536187859.0,54.0,-31.97,141.45,66.74,15.82
narsaq,gl,92.0,1536184200.0,32.0,60.91,-46.05,53.6,29.97
katsuura,jp,0.0,1536184800.0,83.0,33.93,134.5,69.8,9.17
nikolskoye,ru,40.0,1536184800.0,100.0,59.7,30.79,59.0,2.62
kyaiklat,mm,90.0,1536186600.0,100.0,16.44,95.73,75.2,2.24
sangmelima,cm,92.0,1536187860.0,98.0,2.93,11.98,68.54,2.39
mataura,pf,0.0,1536187861.0,90.0,-46.19,168.86,48.83,4.18
tahoua,ne,0.0,1536187861.0,72.0,14.89,5.26,79.52,9.44
kaitangata,nz,0.0,1536187861.0,81.0,-46.28,169.85,48.11,6.76
ushuaia,ar,20.0,1536184800.0,52.0,-54.81,-68.31,44.6,7.2
tuatapere,nz,0.0,1536187862.0,100.0,-46.13,167.69,49.64,5.41
meulaboh,id,32.0,1536187862.0,100.0,4.14,96.13,77.9,3.51
chichimila,mx,24.0,1536187862.0,75.0,20.62,-88.22,82.49,5.41
tazmalt,dz,40.0,1536184800.0,88.0,36.39,4.4,78.8,4.7
nanortalik,gl,92.0,1536187863.0,92.0,60.14,-45.24,40.91,27.56
margate,za,75.0,1536186600.0,87.0,-43.03,147.26,46.4,9.17
vizinga,ru,68.0,1536187863.0,86.0,61.08,50.08,51.08,2.17
hobart,au,75.0,1536186600.0,87.0,-42.88,147.33,46.4,9.17
morehead,pg,1.0,1536184380.0,67.0,38.18,-83.43,84.02,1.72
busselton,au,88.0,1536187864.0,100.0,-33.64,115.35,54.95,6.76
puerto baquerizo moreno,ec,40.0,1536184800.0,73.0,-0.9,-89.6,75.2,10.29
swift current,ca,1.0,1536184800.0,28.0,50.29,-107.8,69.8,5.82
umm lajj,sa,20.0,1536187864.0,100.0,25.02,37.27,81.41,2.95
lorengau,pg,48.0,1536187864.0,100.0,-2.02,147.27,83.57,6.2
opuwo,na,8.0,1536187864.0,72.0,-18.06,13.84,52.16,5.19
hermanus,za,36.0,1536187865.0,100.0,-34.42,19.24,40.73,4.29
vestmannaeyjar,is,0.0,1536187865.0,92.0,63.44,-20.27,47.21,5.3
flinders,au,0.0,1536184800.0,100.0,-34.58,150.85,51.8,7.65
souillac,mu,92.0,1536186600.0,68.0,45.6,-0.6,69.8,8.05
ribeira grande,pt,64.0,1536187866.0,100.0,38.52,-28.7,73.67,9.78
phalaborwa,za,0.0,1536184800.0,27.0,-23.95,31.14,75.2,1.12
punta arenas,cl,0.0,1536184800.0,75.0,-53.16,-70.91,41.0,9.17
cherskiy,ru,48.0,1536187866.0,70.0,68.75,161.3,48.56,8.32
salinopolis,br,0.0,1536187867.0,95.0,-0.61,-47.36,81.14,15.82
chiang klang,th,92.0,1536187867.0,98.0,19.29,100.86,69.98,2.73
birao,cf,44.0,1536187867.0,97.0,10.3,22.78,69.98,4.07
sarh,td,0.0,1536184800.0,88.0,9.14,18.39,77.0,3.62
tekirdag,tr,75.0,1536184200.0,77.0,40.98,27.51,66.2,5.82
thompson,ca,40.0,1536184800.0,42.0,55.74,-97.86,62.6,16.11
bathsheba,bb,40.0,1536184800.0,69.0,13.22,-59.52,82.4,17.22
sitka,us,64.0,1536187928.0,78.0,37.17,-99.65,73.04,15.03
yellowknife,ca,40.0,1536184800.0,52.0,62.45,-114.38,42.8,11.41
malartic,ca,90.0,1536186060.0,100.0,48.14,-78.13,66.2,19.46
sorland,no,24.0,1536187929.0,98.0,67.67,12.69,53.69,5.97
new norfolk,au,75.0,1536186600.0,87.0,-42.78,147.06,46.4,9.17
ponta do sol,cv,0.0,1536187929.0,61.0,-20.63,-46.0,57.38,6.53
bluff,nz,36.0,1536187793.0,62.0,-23.58,149.07,70.61,8.66
mar del plata,ar,48.0,1536187929.0,59.0,-46.43,-67.52,51.89,10.67
saint-pierre,pm,44.0,1536186600.0,82.0,48.95,4.24,68.0,9.17
atuona,pf,68.0,1536187930.0,100.0,-9.8,-139.03,79.61,10.78
komsomolskiy,ru,92.0,1536187930.0,97.0,67.55,63.78,44.51,11.34
esperance,au,20.0,1536184800.0,79.0,10.24,-61.45,84.2,4.41
havoysund,no,0.0,1536184200.0,66.0,71.0,24.66,51.8,19.46
husavik,is,0.0,1536187931.0,54.0,50.56,-96.99,59.9,7.09
epernay,fr,0.0,1536186600.0,82.0,45.45,5.88,71.6,2.24
slamannan,gb,40.0,1536186000.0,93.0,55.94,-3.84,55.4,9.17
dudinka,ru,0.0,1536187931.0,91.0,69.41,86.18,35.51,12.12
victoria,sc,75.0,1536186600.0,88.0,5.28,115.24,77.0,3.36
suratgarh,in,0.0,1536187932.0,61.0,29.32,73.9,82.58,6.42
praia da vitoria,pt,75.0,1536184800.0,83.0,38.73,-27.07,71.6,9.78
bonthe,sl,92.0,1536187932.0,100.0,7.53,-12.5,74.39,2.84
goderich,sl,68.0,1536187933.0,100.0,43.74,-81.71,70.07,11.45
fomboni,km,0.0,1536187933.0,100.0,-12.28,43.74,77.54,7.87
arraial do cabo,br,20.0,1536184800.0,88.0,-22.97,-42.02,66.2,12.75
saint george,bm,76.0,1536187933.0,63.0,39.45,22.34,68.81,2.95
mananjary,mg,0.0,1536187933.0,88.0,-19.16,46.8,51.17,7.09
kavaratti,in,24.0,1536187933.0,100.0,10.57,72.64,80.78,10.78
port lincoln,au,56.0,1536187934.0,93.0,-34.72,135.86,54.5,19.84
torring,dk,0.0,1536186000.0,93.0,55.85,9.48,60.8,5.82
pevek,ru,0.0,1536187934.0,100.0,69.7,170.27,41.63,15.7
vaini,to,80.0,1536187934.0,99.0,15.34,74.49,69.71,5.86
plettenberg bay,za,92.0,1536187934.0,100.0,-34.05,23.37,54.77,15.82
pozo colorado,py,0.0,1536187935.0,54.0,-23.49,-58.8,65.03,8.77
longyearbyen,sj,75.0,1536184200.0,86.0,78.22,15.63,41.0,12.75
acajutla,sv,80.0,1536187849.0,89.0,13.59,-89.83,79.79,2.62
neiafu,to,75.0,1536184800.0,74.0,-18.65,-173.98,78.8,11.41
biak,id,76.0,1536187935.0,100.0,-0.91,122.88,73.85,5.97
cape town,za,20.0,1536184800.0,81.0,-33.93,18.42,44.6,8.05
ancud,cl,92.0,1536187936.0,93.0,-41.87,-73.83,46.13,17.83
qaanaaq,gl,88.0,1536187936.0,100.0,77.48,-69.36,33.62,2.39
kapaa,us,75.0,1536184560.0,82.0,22.08,-159.32,84.02,14.99
bredasdorp,za,20.0,1536184800.0,75.0,-34.53,20.04,44.6,6.93
chlum u trebone,cz,0.0,1536187937.0,87.0,48.96,14.93,48.38,2.62
aguimes,es,20.0,1536186600.0,78.0,27.91,-15.45,73.4,20.8
port alfred,za,64.0,1536187937.0,94.0,-33.59,26.89,62.78,11.79
westport,nz,92.0,1536187937.0,100.0,53.8,-9.52,55.94,13.47
marawi,sd,80.0,1536187937.0,96.0,8.0,124.29,71.33,3.62
ellisras,za,0.0,1536187938.0,33.0,-23.67,27.74,69.98,12.46
sao joao da barra,br,12.0,1536187938.0,100.0,-21.64,-41.05,70.61,23.64
bahia blanca,ar,0.0,1536187682.0,46.0,-38.72,-62.27,65.75,7.65
temiscaming,ca,90.0,1536185340.0,94.0,46.72,-79.1,71.6,19.46
hambantota,lk,44.0,1536187998.0,95.0,6.12,81.12,80.87,15.48
usinsk,ru,44.0,1536187998.0,86.0,66.0,57.56,54.86,7.43
carutapera,br,76.0,1536187999.0,85.0,-1.2,-46.02,79.61,10.67
georgetown,sh,0.0,1536187999.0,87.0,6.8,-58.16,77.99,4.63
isfana,kg,0.0,1536184800.0,55.0,39.84,69.53,60.8,4.47
salalah,om,90.0,1536184200.0,100.0,17.01,54.1,75.2,6.93
ormara,pk,36.0,1536188000.0,93.0,25.21,64.64,77.09,13.69
avarua,ck,75.0,1536184800.0,53.0,-21.21,-159.78,77.0,12.75
chokurdakh,ru,0.0,1536188000.0,70.0,70.62,147.9,48.83,9.1
bud,no,20.0,1536186000.0,82.0,62.91,6.91,57.2,4.7
progreso,mx,0.0,1536184800.0,67.0,-34.68,-56.22,62.6,11.41
santa isabel do rio negro,br,48.0,1536188001.0,97.0,-0.41,-65.02,74.66,5.41
bambous virieux,mu,40.0,1536184800.0,83.0,-20.34,57.76,71.6,16.11
yaan,cn,92.0,1536188002.0,100.0,7.38,8.57,70.43,4.18
ayan,ru,88.0,1536188002.0,97.0,40.67,33.6,55.58,2.28
bereda,so,75.0,1536186600.0,93.0,43.27,-7.54,62.6,5.82
road town,vg,40.0,1536184800.0,74.0,18.42,-64.62,84.92,4.7
chuy,uy,0.0,1536188003.0,85.0,-33.69,-53.46,55.58,13.69
indianola,us,40.0,1536184380.0,52.0,40.24,-100.42,78.98,16.11
springfield,us,20.0,1536184320.0,53.0,37.22,-93.29,87.98,5.82
talnakh,ru,92.0,1536188004.0,100.0,69.49,88.39,36.41,10.89
cabo san lucas,mx,40.0,1536184140.0,70.0,22.89,-109.91,86.0,9.17
jiuquan,cn,0.0,1536188004.0,75.0,39.73,98.49,38.03,3.4
vao,nc,24.0,1536188004.0,90.0,59.1,26.19,53.15,2.73
torbay,ca,75.0,1536184800.0,87.0,47.66,-52.73,55.4,10.29
lebu,cl,0.0,1536188005.0,85.0,8.96,38.73,43.07,2.62
aleksandrov gay,ru,12.0,1536188005.0,67.0,50.14,48.57,53.42,2.73
iranshahr,ir,12.0,1536188005.0,28.0,27.21,60.69,62.96,3.18
orocue,co,80.0,1536188005.0,92.0,4.79,-71.34,77.36,3.06
starkville,us,90.0,1536188100.0,94.0,33.45,-88.82,78.98,9.17
luderitz,na,48.0,1536188006.0,89.0,-26.65,15.16,52.25,18.84
vardo,no,20.0,1536185700.0,47.0,39.62,-77.74,93.2,4.7
chupa,ru,20.0,1536184800.0,18.0,-15.11,-69.99,59.0,13.87
thunder bay,ca,40.0,1536184800.0,37.0,48.41,-89.26,68.0,13.87
east london,za,88.0,1536188006.0,100.0,-33.02,27.91,66.11,13.24
yerbogachen,ru,80.0,1536188006.0,85.0,61.28,108.01,42.98,8.77
laguna,br,5.0,1536183780.0,34.0,27.52,-110.01,96.8,5.82
araouane,ml,80.0,1536188007.0,36.0,18.9,-3.53,90.05,9.33
yerofey pavlovich,ru,0.0,1536188007.0,55.0,53.97,121.97,44.51,11.01
scarborough,tt,0.0,1536184200.0,93.0,54.28,-0.41,53.6,3.36
bossangoa,cf,44.0,1536188007.0,90.0,6.5,17.45,70.43,4.85
tiksi,ru,20.0,1536188008.0,94.0,71.64,128.87,42.17,16.71
abu samrah,qa,0.0,1536188008.0,86.0,35.3,37.18,69.26,12.8
kavieng,pg,20.0,1536188008.0,100.0,-2.57,150.8,81.32,6.08
shuiji,cn,92.0,1536188008.0,96.0,27.42,118.34,76.91,2.73
tessalit,ml,32.0,1536188008.0,25.0,20.2,1.01,84.11,1.39
shellbrook,ca,40.0,1536184800.0,30.0,53.22,-106.39,68.0,12.75
la sarre,ca,92.0,1536188069.0,99.0,48.8,-79.2,62.15,12.8
dikson,ru,68.0,1536188069.0,100.0,73.51,80.55,39.74,26.11
arona,es,0.0,1536187800.0,93.0,45.76,8.56,69.8,2.24
hay river,ca,20.0,1536184800.0,47.0,60.82,-115.79,46.4,9.17
nsoko,sz,0.0,1536188071.0,48.0,-27.07,31.93,71.69,7.65
vila franca do campo,pt,20.0,1536186600.0,77.0,37.72,-25.43,69.8,3.36
ilulissat,gl,40.0,1536184200.0,56.0,69.22,-51.1,42.8,4.7
avera,pf,1.0,1536186900.0,47.0,33.19,-82.53,95.0,5.82
colac,au,56.0,1536188071.0,79.0,-38.34,143.59,58.28,10.67
qaqortoq,gl,76.0,1536184200.0,32.0,60.72,-46.03,53.6,29.97
scottsbluff,us,1.0,1536184380.0,45.0,41.87,-103.67,80.06,11.41
bethel,us,90.0,1536184380.0,73.0,60.79,-161.76,51.08,3.74
kainantu,pg,24.0,1536188073.0,80.0,-6.29,145.87,71.78,1.61
khash,ir,0.0,1536188073.0,25.0,28.22,61.21,49.19,3.4
fairbanks,us,75.0,1536185100.0,71.0,64.84,-147.72,53.96,9.17
gamba,ga,48.0,1536188073.0,88.0,28.28,88.52,28.04,1.5
pangnirtung,ca,20.0,1536184800.0,66.0,66.15,-65.72,50.0,2.51
yakeshi,cn,0.0,1536188074.0,77.0,49.28,120.73,45.68,9.55
port elizabeth,za,1.0,1536184560.0,67.0,39.31,-74.98,91.04,3.36
paracatu,br,0.0,1536188074.0,34.0,-17.22,-46.87,67.64,9.44
anadyr,ru,0.0,1536184800.0,82.0,64.73,177.51,55.4,4.47
hammerfest,no,0.0,1536184200.0,66.0,70.66,23.68,51.8,19.46
umm kaddadah,sd,32.0,1536188075.0,84.0,13.6,26.69,74.21,7.99
hilo,us,1.0,1536184560.0,69.0,19.71,-155.08,84.02,14.99
muravlenko,ru,92.0,1536188075.0,84.0,63.79,74.5,56.66,3.62
vrede,za,0.0,1536188075.0,32.0,-27.43,29.16,51.35,8.43
surab,pk,0.0,1536188076.0,28.0,28.49,66.26,45.14,4.97
crixas,br,0.0,1536188076.0,55.0,-14.55,-49.97,69.35,3.4
tecoanapa,mx,90.0,1536186120.0,88.0,16.99,-99.26,78.8,9.17
gao,ml,24.0,1536188076.0,78.0,16.28,-0.04,82.04,5.53
barabai,id,88.0,1536188076.0,99.0,-2.59,115.38,73.31,2.84
praya,id,75.0,1536186600.0,88.0,-8.71,116.27,73.4,8.88
faanui,pf,44.0,1536188077.0,100.0,-16.48,-151.75,76.19,18.5
caravelas,br,92.0,1536188077.0,100.0,-17.73,-39.27,73.31,22.3
voyinka,ua,32.0,1536188077.0,93.0,45.87,33.99,65.93,3.18
pochutla,mx,75.0,1536184020.0,78.0,15.74,-96.47,82.4,6.93
imbituba,br,0.0,1536184800.0,77.0,-28.24,-48.67,59.0,2.24
lavrentiya,ru,20.0,1536188078.0,93.0,65.58,-170.99,47.48,12.68
kahului,us,40.0,1536184560.0,59.0,20.89,-156.47,87.98,25.28
upernavik,gl,0.0,1536188078.0,100.0,72.79,-56.15,37.94,7.99
kamina,cd,24.0,1536188079.0,58.0,-8.74,25.0,69.89,4.41
mayumba,ga,92.0,1536188079.0,100.0,-3.44,10.65,73.13,8.88
garowe,so,0.0,1536188079.0,54.0,8.41,48.48,77.0,15.26
kargopol,ru,92.0,1536188139.0,90.0,61.51,38.95,59.09,8.77
vila velha,br,20.0,1536184800.0,78.0,-3.71,-38.6,78.8,5.82
namatanai,pg,8.0,1536188140.0,99.0,-3.66,152.44,83.75,3.18
iqaluit,ca,20.0,1536184800.0,54.0,63.75,-68.52,55.4,10.29
takaka,nz,8.0,1536188140.0,75.0,-40.86,172.81,53.51,11.45
kutum,sd,24.0,1536188140.0,87.0,14.2,24.66,70.43,13.13
pedernales,do,56.0,1536188141.0,79.0,0.07,-80.05,75.83,7.31
fort nelson,ca,75.0,1536184800.0,66.0,58.81,-122.69,50.0,5.82
praia,cv,0.0,1536184800.0,40.0,-20.25,-43.81,69.8,11.41
waipawa,nz,92.0,1536188142.0,98.0,-39.94,176.59,46.94,15.7
mecca,sa,12.0,1536188142.0,67.0,21.43,39.83,76.19,2.84
wamba,cd,0.0,1536188142.0,97.0,2.14,27.99,67.73,2.06
ntcheu,mw,80.0,1536188142.0,88.0,-14.82,34.64,65.21,4.63
mbumi,tz,92.0,1536188142.0,94.0,-7.91,39.21,71.69,2.73
hami,cn,0.0,1536188143.0,35.0,42.84,93.51,50.09,7.76
rawson,ar,92.0,1536188143.0,36.0,-43.3,-65.11,63.32,20.51
naze,jp,92.0,1536188143.0,98.0,5.43,7.07,73.76,5.97
berlevag,no,44.0,1536188143.0,100.0,70.86,29.09,40.55,6.64
verkhnyachka,ua,92.0,1536188129.0,92.0,48.83,30.04,62.33,6.2
muvattupula,in,40.0,1536186600.0,83.0,9.97,76.58,77.0,1.61
lillooet,ca,1.0,1536184800.0,19.0,50.69,-121.94,80.6,2.24
warsaw,pl,0.0,1536186600.0,88.0,52.23,21.01,62.6,5.82
airai,pw,0.0,1536188144.0,67.0,-8.93,125.41,72.41,2.17
severo-kurilsk,ru,92.0,1536188144.0,99.0,50.68,156.12,50.99,14.81
lompoc,us,1.0,1536186900.0,51.0,34.64,-120.46,80.6,12.75
warrnambool,au,76.0,1536187902.0,74.0,-38.38,142.48,60.53,19.62
san patricio,mx,0.0,1536188145.0,75.0,-26.98,-56.83,56.39,4.18
tuktoyaktuk,ca,75.0,1536184800.0,93.0,69.44,-133.03,44.6,13.87
almendralejo,es,0.0,1536188145.0,91.0,38.68,-6.41,59.9,3.51
gat,ly,92.0,1536188145.0,100.0,14.69,-16.54,75.11,3.4
alofi,nu,40.0,1536184800.0,57.0,-19.06,-169.92,80.6,14.99
luanda,ao,20.0,1536188146.0,96.0,-8.83,13.24,69.26,6.2
baft,ir,0.0,1536188146.0,63.0,29.23,56.61,46.13,2.62
peniche,pt,75.0,1536186600.0,77.0,39.36,-9.38,66.2,6.93
kamphaeng phet,th,92.0,1536188146.0,100.0,16.47,99.53,72.95,3.74
quartz hill,us,1.0,1536186900.0,25.0,34.65,-118.22,97.88,5.82
algeciras,ph,12.0,1536184800.0,78.0,36.13,-5.45,71.6,18.34
ammon,us,1.0,1536184380.0,2.0,43.47,-111.97,87.08,8.05
khatanga,ru,80.0,1536188147.0,85.0,71.98,102.47,34.16,22.75
adrar,dz,0.0,1536184800.0,20.0,27.87,-0.29,93.2,11.41
pierre,us,1.0,1536184380.0,24.0,44.37,-100.35,77.0,13.87
hays,us,90.0,1536185520.0,81.0,38.88,-99.33,71.96,16.11
te anau,nz,0.0,1536188148.0,76.0,-45.41,167.72,48.65,3.51
kirakira,sb,48.0,1536188148.0,100.0,-10.46,161.92,82.13,5.75
port hedland,au,0.0,1536186600.0,36.0,-20.31,118.58,60.8,8.05
poronaysk,ru,92.0,1536188209.0,99.0,49.22,143.1,61.79,9.22
demba,cd,24.0,1536188209.0,90.0,-5.47,22.27,72.23,2.17
inhambane,mz,0.0,1536188209.0,99.0,-23.87,35.38,73.85,13.24
sawakin,sd,68.0,1536188209.0,84.0,19.1,37.33,83.21,3.29
tasiilaq,gl,75.0,1536184200.0,52.0,65.61,-37.64,44.6,34.45
constitucion,mx,75.0,1536184140.0,39.0,23.99,-104.67,78.8,5.82
volksrust,za,0.0,1536188210.0,42.0,-27.36,29.88,50.72,5.97
rundu,na,8.0,1536188210.0,21.0,-17.91,19.77,67.37,9.66
wanning,cn,0.0,1536186000.0,93.0,48.64,13.53,59.0,2.24
vila,vu,0.0,1536186000.0,82.0,45.18,8.4,69.8,5.82
santa marta,co,75.0,1536184800.0,66.0,11.24,-74.21,86.0,6.93
coihaique,cl,75.0,1536184800.0,87.0,-45.58,-72.07,44.6,3.36
sur,om,0.0,1536188212.0,79.0,22.57,59.53,86.27,11.23
isangel,vu,12.0,1536188212.0,100.0,-19.55,169.27,74.21,20.07
santa maria,cv,0.0,1536184800.0,77.0,-29.69,-53.81,60.8,4.7
mirandela,pt,64.0,1536188213.0,96.0,41.49,-7.18,55.76,2.06
carballo,es,75.0,1536186600.0,93.0,43.21,-8.69,62.6,5.82
bandarbeyla,so,0.0,1536188214.0,81.0,9.49,50.81,72.14,25.43
batemans bay,au,56.0,1536188214.0,83.0,-35.71,150.18,57.83,8.77
manado,id,20.0,1536184800.0,88.0,1.49,124.85,75.2,6.93
saskylakh,ru,92.0,1536188214.0,87.0,71.97,114.09,33.26,22.75
bilma,ne,20.0,1536188214.0,18.0,18.69,12.92,78.08,4.63
show low,us,1.0,1536186900.0,29.0,34.25,-110.03,82.94,9.17
tilichiki,ru,88.0,1536188216.0,96.0,60.47,166.1,51.17,4.18
newport,us,0.0,1536186000.0,82.0,51.59,-3.0,55.4,8.05
saint-philippe,re,1.0,1536185700.0,62.0,45.36,-73.48,87.8,12.75
bemidji,us,1.0,1536186900.0,35.0,47.48,-94.89,71.6,11.41
honningsvag,no,44.0,1536188217.0,91.0,70.98,25.97,47.57,10.89
bowen,au,90.0,1536184800.0,78.0,-20.01,148.25,71.6,9.17
gazli,uz,0.0,1536188217.0,49.0,40.13,63.45,54.14,4.74
kikwit,cd,44.0,1536188217.0,93.0,-5.04,18.82,70.43,2.62
manavgat,tr,40.0,1536186000.0,83.0,36.79,31.44,77.0,6.93
puerto ayora,ec,75.0,1536184800.0,69.0,-0.74,-90.35,77.0,17.22
lohja,fi,0.0,1536186000.0,100.0,60.25,24.07,51.8,2.24
hovd,mn,75.0,1536184200.0,93.0,63.83,10.7,55.4,2.24
kenai,us,1.0,1536184560.0,44.0,60.55,-151.26,64.04,8.05
grindavik,is,0.0,1536186600.0,93.0,63.84,-22.43,50.0,6.93
la romana,do,75.0,1536184800.0,83.0,18.43,-68.97,82.4,2.73
monteagudo,bo,0.0,1536184800.0,16.0,-19.8,-63.96,84.2,4.7
kalmunai,lk,0.0,1536188219.0,98.0,7.42,81.82,70.34,4.63
kangaatsiaq,gl,32.0,1536188219.0,99.0,68.31,-53.46,39.56,1.72
tumut,au,92.0,1536188219.0,87.0,-35.3,148.22,50.54,7.2
mahebourg,mu,40.0,1536184800.0,83.0,-20.41,57.7,71.6,16.11
malumfashi,ng,32.0,1536188220.0,94.0,11.79,7.62,71.51,8.55
bambanglipuro,id,92.0,1536188220.0,94.0,-7.95,110.28,72.68,3.85
baie-comeau,ca,90.0,1536184800.0,82.0,49.22,-68.15,64.4,10.29
sao gabriel da cachoeira,br,24.0,1536188220.0,96.0,-0.13,-67.09,73.85,1.83
cidreira,br,0.0,1536188220.0,89.0,-30.17,-50.22,53.33,10.22
camacha,pt,20.0,1536186600.0,73.0,33.08,-16.33,71.6,9.17
borba,br,0.0,1536188116.0,81.0,38.81,-7.46,63.86,5.86
mount isa,au,0.0,1536186600.0,22.0,-20.73,139.49,66.2,5.82
kiama,au,0.0,1536184800.0,100.0,-34.67,150.86,51.8,7.65
kiunga,pg,92.0,1536188281.0,98.0,-6.12,141.3,74.57,2.06
champerico,gt,75.0,1536184200.0,46.0,16.38,-93.6,89.6,5.82
lagoa,pt,0.0,1536186600.0,68.0,37.14,-8.45,69.8,9.17
kirovskiy,ru,92.0,1536188282.0,91.0,45.09,133.51,61.34,6.53
ternate,id,75.0,1536184800.0,100.0,14.29,120.72,80.6,3.36
arlit,ne,0.0,1536188282.0,24.0,18.74,7.39,74.66,2.28
college,us,75.0,1536185100.0,71.0,64.86,-147.8,53.96,9.17
conceicao do araguaia,br,0.0,1536188283.0,50.0,-8.26,-49.26,82.4,8.77
geraldton,ca,20.0,1536184800.0,48.0,49.72,-86.95,62.6,10.29
klaksvik,fo,12.0,1536186000.0,93.0,62.23,-6.59,50.0,16.11
broome,au,56.0,1536186000.0,87.0,52.47,1.45,60.8,4.7
carnarvon,au,68.0,1536188284.0,75.0,-30.97,22.13,39.29,8.77
sergeyevka,kz,68.0,1536188284.0,82.0,53.88,67.42,47.21,5.64
cockburn town,bs,56.0,1536188284.0,99.0,21.46,-71.14,82.49,14.47
zanjan,ir,0.0,1536188284.0,89.0,36.67,48.48,41.72,2.28
ust-kalmanka,ru,0.0,1536188285.0,97.0,52.12,83.31,41.72,7.65
port hardy,ca,75.0,1536184800.0,72.0,50.7,-127.42,59.0,3.36
sao jose da coroa grande,br,100.0,1536188285.0,99.0,-8.9,-35.15,72.41,6.76
cochrane,ca,48.0,1536188285.0,94.0,-47.25,-72.57,24.89,1.39
batagay,ru,12.0,1536188285.0,60.0,67.65,134.64,40.01,4.41
sistranda,no,75.0,1536184200.0,100.0,63.73,8.83,50.0,4.7
christchurch,nz,68.0,1536186600.0,66.0,-43.53,172.64,48.2,3.36
saint-joseph,re,0.0,1536186600.0,82.0,43.56,6.97,69.8,3.36
beringovskiy,ru,0.0,1536188286.0,92.0,63.05,179.32,53.78,1.72
gorontalo,id,12.0,1536188286.0,78.0,0.54,123.06,79.43,4.41
pontianak,id,75.0,1536184800.0,100.0,-0.02,109.34,73.4,5.75
fare,pf,64.0,1536188287.0,100.0,-16.7,-151.02,75.65,24.09
baherden,tm,0.0,1536188287.0,62.0,38.44,57.43,50.81,2.73
ati,td,88.0,1536188287.0,67.0,13.21,18.34,80.51,4.74
chumphon,th,92.0,1536188287.0,94.0,10.5,99.18,74.57,3.51
pimentel,pe,32.0,1536188288.0,75.0,-3.7,-45.5,79.43,6.98
tornio,fi,90.0,1536186000.0,100.0,61.12,27.27,59.0,2.39
jumla,np,8.0,1536188288.0,88.0,29.28,82.18,37.04,2.95
corumba,br,0.0,1536184800.0,47.0,-19.0,-57.65,75.2,6.93
mikhaylovka,kz,0.0,1536188289.0,82.0,52.96,103.29,46.58,8.77
mangrol,in,92.0,1536188289.0,96.0,25.33,76.51,72.05,1.5
cap malheureux,mu,40.0,1536184800.0,83.0,-19.98,57.61,71.6,16.11
comodoro rivadavia,ar,75.0,1536184800.0,58.0,-45.87,-67.48,55.4,18.34
beyla,gn,80.0,1536188290.0,98.0,8.69,-8.65,69.08,5.19
svetlaya,ru,0.0,1536188290.0,88.0,46.54,138.33,67.28,12.12
kruisfontein,za,92.0,1536188290.0,100.0,-34.0,24.73,54.95,17.05
coahuayana,mx,32.0,1536188290.0,88.0,18.62,-100.35,72.14,2.17
campbell river,ca,75.0,1536184800.0,29.0,50.02,-125.24,77.0,6.93
arman,ru,20.0,1536184800.0,87.0,59.7,150.17,57.2,11.18
awbari,ly,0.0,1536188291.0,37.0,26.59,12.77,69.44,2.62
leh,in,92.0,1536188291.0,95.0,34.16,77.58,30.83,0.6
nhlangano,sz,0.0,1536188291.0,42.0,-27.11,31.2,62.78,4.63
saravan,la,40.0,1536186600.0,31.0,39.72,45.65,75.2,18.34
zhuanghe,cn,0.0,1536188292.0,93.0,39.7,122.97,77.09,12.91
cayambe,ec,0.0,1536188292.0,76.0,0.04,-78.14,46.49,1.95
flin flon,ca,75.0,1536184800.0,36.0,54.77,-101.88,64.4,16.11
amga,ru,92.0,1536188352.0,99.0,60.89,131.98,40.91,5.86
quatre cocos,mu,40.0,1536184800.0,83.0,-20.21,57.76,71.6,16.11
pozoblanco,es,12.0,1536186600.0,64.0,38.38,-4.85,71.6,8.05
nacala,mz,0.0,1536188353.0,100.0,-14.56,40.69,73.04,1.83
kaka,tm,0.0,1536188353.0,70.0,37.35,59.62,41.54,2.95
obo,cf,0.0,1536188353.0,90.0,5.39,26.49,69.53,3.96
matadi,cd,12.0,1536188353.0,89.0,-5.83,13.46,69.62,7.09
fortuna,us,0.0,1536186600.0,57.0,38.18,-1.13,75.2,2.24
azul,ar,12.0,1536188354.0,45.0,-36.78,-59.86,66.29,13.8
paramonga,pe,48.0,1536188354.0,100.0,-10.68,-77.82,60.44,6.42
balkhash,kz,0.0,1536188354.0,100.0,46.84,74.98,54.59,20.18
provideniya,ru,90.0,1536184800.0,87.0,64.42,-173.23,48.2,8.95
rosita,ni,68.0,1536188355.0,83.0,13.92,-84.4,78.08,2.28
shenjiamen,cn,44.0,1536188355.0,91.0,29.96,122.3,82.04,11.23
dingle,ie,80.0,1536188355.0,100.0,11.0,122.67,75.11,8.99
bontang,id,48.0,1536188355.0,100.0,0.12,117.47,80.42,7.99
beaverlodge,ca,75.0,1536184800.0,51.0,55.21,-119.43,60.8,8.05
dunedin,nz,0.0,1536188097.0,77.0,-45.87,170.5,45.95,5.41
tiarei,pf,20.0,1536186600.0,65.0,-17.53,-149.33,80.6,17.22
tromso,no,0.0,1536184200.0,87.0,69.65,18.96,44.6,25.28
aykino,ru,56.0,1536188356.0,82.0,62.22,49.99,44.42,2.95
kodiak,us,90.0,1536184380.0,90.0,39.95,-94.76,75.92,3.36
mogadishu,so,92.0,1536188357.0,100.0,2.04,45.34,76.73,15.48
seabra,br,76.0,1536188315.0,86.0,-12.42,-41.77,66.83,3.4
batagay-alyta,ru,32.0,1536188357.0,62.0,67.8,130.41,33.26,4.07
yoichi,jp,8.0,1536188357.0,77.0,43.19,140.77,69.62,12.01
noumea,nc,0.0,1536186600.0,64.0,-22.28,166.46,71.6,16.11
panzhihua,cn,36.0,1536188358.0,86.0,26.59,101.72,64.85,0.94
itoman,jp,40.0,1536184800.0,78.0,26.12,127.67,82.4,2.24
toamasina,mg,75.0,1536184800.0,88.0,-18.17,49.38,66.2,2.51
mkushi,zm,0.0,1536188359.0,49.0,-13.61,29.4,65.93,10.78
tamiahua,mx,0.0,1536188359.0,93.0,21.28,-97.45,83.84,9.22
asyut,eg,0.0,1536184800.0,42.0,27.18,31.19,82.4,9.17
olhao,pt,0.0,1536186600.0,68.0,37.03,-7.84,69.8,9.17
tara,ru,75.0,1536184800.0,88.0,33.0,130.15,77.0,4.7
padang,id,92.0,1536188360.0,100.0,-0.92,100.36,76.91,3.62
kattivakkam,in,40.0,1536186600.0,88.0,13.22,80.32,82.4,6.93
belmonte,br,0.0,1536188360.0,90.0,40.36,-7.35,53.33,2.95
yulara,au,0.0,1536184800.0,40.0,-25.24,130.99,51.8,6.93
taltal,cl,0.0,1536188361.0,94.0,-25.41,-70.49,55.58,2.28
guerrero negro,mx,0.0,1536188361.0,53.0,27.97,-114.04,81.23,13.69
tsaratanana,mg,0.0,1536188361.0,62.0,-16.8,47.65,66.11,15.03
huarmey,pe,8.0,1536188361.0,77.0,-10.07,-78.15,60.89,2.73
seoul,kr,75.0,1536187860.0,100.0,37.57,126.98,77.0,2.24
vylkove,ua,92.0,1536188362.0,95.0,45.4,29.58,64.13,5.86
biryusinsk,ru,36.0,1536188362.0,79.0,55.96,97.82,45.23,5.41
sibu,my,75.0,1536184800.0,100.0,2.29,111.83,71.6,3.36
kangaba,ml,88.0,1536188362.0,95.0,11.94,-8.41,72.59,3.4
southern pines,us,1.0,1536187500.0,52.0,35.17,-79.39,93.02,5.82
buraydah,sa,0.0,1536184800.0,21.0,26.33,43.97,89.6,3.36
ostrovnoy,ru,92.0,1536188423.0,99.0,68.05,39.51,44.42,7.87
palu,id,100.0,1536188423.0,92.0,-0.9,119.87,66.74,1.72
ruwi,om,0.0,1536188423.0,77.0,23.6,58.55,81.59,4.63
hervey bay,au,12.0,1536188257.0,83.0,-25.3,152.85,69.71,10.0
bani,do,20.0,1536188424.0,100.0,15.89,120.27,77.45,1.61
yantal,ru,92.0,1536188424.0,92.0,56.85,105.25,46.85,7.99
san quintin,mx,75.0,1536184800.0,94.0,17.54,120.52,75.2,4.7
port blair,in,80.0,1536188424.0,96.0,11.67,92.75,82.58,17.27
la ronge,ca,75.0,1536184800.0,39.0,55.1,-105.3,64.4,16.11
khilok,ru,68.0,1536188425.0,81.0,51.36,110.46,44.96,8.77
ziniare,bf,20.0,1536184800.0,78.0,12.58,-1.3,82.4,4.7
annonay,fr,0.0,1536186600.0,82.0,45.24,4.67,71.6,6.93
abha,sa,20.0,1536184800.0,83.0,18.22,42.5,69.8,9.17
chicama,pe,40.0,1536184800.0,82.0,-7.84,-79.15,66.2,11.41
barcelos,br,75.0,1536186600.0,93.0,41.53,-8.62,64.4,3.36
maningrida,au,0.0,1536188426.0,66.0,-12.05,134.23,79.16,6.87
belaya gora,ru,32.0,1536188427.0,74.0,68.54,146.19,48.83,3.96
villa rica,pe,44.0,1536188427.0,62.0,-10.74,-75.27,75.65,0.72
mana,gf,0.0,1536186600.0,100.0,43.52,20.24,62.6,1.12
samarai,pg,92.0,1536188428.0,100.0,-10.62,150.67,76.64,18.16
amudat,ug,8.0,1536188428.0,86.0,1.95,34.95,54.68,2.62
sao filipe,cv,88.0,1536188428.0,100.0,14.9,-24.5,77.72,8.21
hasaki,jp,75.0,1536184800.0,74.0,35.73,140.83,80.6,10.29
noyabrsk,ru,92.0,1536188429.0,83.0,63.2,75.45,53.69,2.95
ust-tsilma,ru,0.0,1536188429.0,95.0,65.44,52.15,50.54,4.63
bayshore gardens,us,90.0,1536187020.0,79.0,27.43,-82.59,84.02,13.87
shelburne,us,20.0,1536184800.0,49.0,44.08,-80.2,89.6,13.87
clyde river,ca,75.0,1536184800.0,81.0,70.47,-68.59,44.6,3.36
craigieburn,au,75.0,1536186600.0,62.0,-37.6,144.94,57.2,27.51
necochea,ar,24.0,1536188245.0,47.0,-38.55,-58.74,67.73,16.6
sabzevar,ir,0.0,1536188431.0,34.0,36.21,57.68,48.02,5.41
sioux lookout,ca,20.0,1536184800.0,44.0,50.1,-91.92,60.8,9.17
ahipara,nz,92.0,1536188431.0,100.0,-35.17,173.16,54.05,14.81
berdigestyakh,ru,48.0,1536188432.0,83.0,62.1,126.7,42.17,3.74
senador jose porfirio,br,32.0,1536188432.0,86.0,-2.59,-51.95,80.06,3.18
yumen,cn,0.0,1536188432.0,44.0,40.29,97.04,43.7,8.88
trapani,it,0.0,1536186000.0,69.0,38.02,12.54,78.8,4.7
grand gaube,mu,40.0,1536184800.0,83.0,-20.01,57.66,71.6,16.11
camabatela,ao,68.0,1536188433.0,95.0,-8.19,15.37,61.43,2.62
gayeri,bf,0.0,1536188433.0,82.0,12.65,0.49,77.45,7.54
antalaha,mg,76.0,1536188433.0,98.0,-14.9,50.28,69.71,12.24
media luna,cu,0.0,1536184800.0,27.0,-21.67,-64.63,73.4,6.93
sijunjung,id,8.0,1536188434.0,93.0,-0.69,100.95,69.17,1.72
natchitoches,us,1.0,1536186900.0,49.0,31.76,-93.09,93.92,9.17
miri,my,8.0,1536188435.0,94.0,10.31,9.75,67.46,2.73
yellandu,in,92.0,1536188435.0,90.0,17.59,80.32,73.94,12.68
ucluelet,ca,40.0,1536184800.0,38.0,48.94,-125.55,75.2,8.05
norman wells,ca,40.0,1536184800.0,53.0,65.28,-126.83,51.8,4.7
nouadhibou,mr,24.0,1536184800.0,78.0,20.93,-17.03,71.6,12.75
porto walter,br,0.0,1536188436.0,31.0,-8.27,-72.74,81.23,3.74
richards bay,za,0.0,1536188436.0,47.0,-28.77,32.06,72.59,7.43
rocha,uy,0.0,1536188496.0,77.0,-34.48,-54.34,55.67,8.77
zhangjiakou,cn,8.0,1536188496.0,55.0,40.77,114.88,54.05,14.36
atar,mr,48.0,1536188497.0,45.0,20.52,-13.05,87.35,6.42
breves,br,36.0,1536188497.0,92.0,-1.68,-50.48,78.71,7.09
aktau,kz,0.0,1536184800.0,27.0,43.65,51.16,64.4,8.95
talara,pe,0.0,1536184800.0,290.0,-4.58,-81.27,62.6,17.22
katangli,ru,32.0,1536188497.0,91.0,51.71,143.23,55.94,15.7
gornopravdinsk,ru,56.0,1536188360.0,90.0,60.06,69.92,48.11,2.39
mazarron,es,0.0,1536186600.0,83.0,37.6,-1.31,75.2,8.05
sidney,us,1.0,1536186900.0,26.0,47.72,-104.16,73.94,11.41
deputatskiy,ru,0.0,1536188498.0,62.0,69.3,139.9,40.82,10.22
kansanshi,zm,44.0,1536188321.0,41.0,-12.1,26.43,65.03,6.53
makakilo city,us,75.0,1536185940.0,65.0,21.35,-158.09,87.98,12.75
russell,nz,0.0,1536184800.0,41.0,-33.01,-68.8,78.8,3.36
vanavara,ru,80.0,1536188499.0,65.0,60.35,102.28,45.14,7.54
kirensk,ru,92.0,1536188499.0,90.0,57.78,108.12,48.92,7.99
lasa,cn,20.0,1536186600.0,73.0,34.92,32.53,78.8,5.82
sisimiut,gl,24.0,1536188500.0,96.0,66.94,-53.67,33.71,1.61
filadelfia,py,0.0,1536188500.0,50.0,-22.35,-60.04,68.54,10.45
antofagasta,cl,20.0,1536184800.0,67.0,-23.65,-70.4,59.0,14.99
kupang,id,20.0,1536184800.0,78.0,-10.16,123.6,75.2,5.82
salina,us,40.0,1536186900.0,78.0,36.29,-95.15,82.4,5.82
sydney,au,75.0,1536186600.0,82.0,-33.85,151.22,57.2,6.93
kaabong,ug,0.0,1536188501.0,76.0,3.51,34.14,62.78,6.42
sungurlu,tr,92.0,1536188502.0,98.0,40.17,34.38,59.81,2.95
sitrah,bh,5.0,1536184800.0,75.0,26.15,50.62,91.4,6.93
moron,mn,75.0,1536184800.0,88.0,10.49,-68.2,75.2,2.73
chapais,ca,90.0,1536184800.0,100.0,49.78,-74.86,64.4,4.7
mount darwin,zw,24.0,1536188503.0,58.0,-16.77,31.58,69.89,3.96
the valley,ai,20.0,1536184800.0,69.0,18.22,-63.06,84.2,8.05
rio grande,br,0.0,1536183900.0,76.0,-32.03,-52.1,57.2,8.05
jacareacanga,br,80.0,1536188503.0,65.0,-6.22,-57.76,84.47,3.4
pitimbu,br,92.0,1536188504.0,90.0,-7.47,-34.81,77.9,11.68
mangochi,mw,68.0,1536188505.0,93.0,-14.48,35.26,66.2,4.18
boden,se,0.0,1536186000.0,100.0,65.83,21.69,42.8,4.7
mbini,gq,20.0,1536184800.0,88.0,1.58,9.62,78.8,4.7
pisco,pe,0.0,1536184800.0,30.0,-13.71,-76.2,71.6,12.75
taitung,tw,0.0,1536184800.0,88.0,22.76,121.15,77.0,3.36
renqiu,cn,0.0,1536188507.0,46.0,38.71,116.1,72.41,13.24
chernyanka,ru,32.0,1536188507.0,36.0,50.94,37.8,58.91,9.44
mutis,co,100.0,1536188507.0,100.0,6.23,-77.4,77.09,5.86
mwinilunga,zm,32.0,1536188507.0,49.0,-11.73,24.43,60.98,3.96
dongsheng,cn,56.0,1536188507.0,75.0,29.72,112.52,79.88,12.57
siocon,ph,48.0,1536188508.0,99.0,11.03,124.04,83.03,18.5
vryheid,za,0.0,1536188508.0,41.0,-27.77,30.79,54.59,6.53
areka,et,64.0,1536188508.0,97.0,7.07,37.71,55.94,2.39
auki,sb,48.0,1536188508.0,90.0,12.18,6.51,70.88,4.63
virginia beach,us,1.0,1536188040.0,59.0,36.85,-75.98,89.6,5.82
mount gambier,au,80.0,1536188569.0,96.0,-37.83,140.78,53.06,6.42
general roca,ar,0.0,1536184800.0,21.0,-39.03,-67.58,69.8,28.86
kloulklubed,pw,75.0,1536184200.0,88.0,7.04,134.26,80.6,5.82
manokwari,id,0.0,1536188275.0,100.0,-0.87,134.08,82.49,3.85
ainazi,lv,44.0,1536188570.0,85.0,57.86,24.36,60.35,4.52
san pedro,ar,8.0,1536188571.0,52.0,-33.68,-59.66,64.4,14.47
havre-saint-pierre,ca,90.0,1536185460.0,76.0,50.23,-63.6,53.6,6.93
matagami,ca,24.0,1536188572.0,97.0,9.67,8.4,66.29,1.95
olavarria,ar,12.0,1536188572.0,47.0,-36.89,-60.32,66.83,13.47
payakumbuh,id,0.0,1536188573.0,93.0,-0.23,100.63,70.16,2.17
taksimo,ru,20.0,1536188573.0,66.0,56.36,114.84,43.61,4.29
oussouye,sn,88.0,1536188573.0,100.0,12.49,-16.54,79.52,11.01
parchim,de,0.0,1536186000.0,93.0,53.43,11.85,59.0,6.93
taoudenni,ml,36.0,1536188574.0,22.0,22.68,-3.98,88.88,6.53
kuressaare,ee,40.0,1536184200.0,93.0,58.21,25.84,60.8,3.36
kota kinabalu,my,75.0,1536186600.0,83.0,5.98,116.07,78.8,6.93
zhezkazgan,kz,24.0,1536188574.0,70.0,47.8,67.71,50.63,14.25
byron bay,au,75.0,1536186600.0,77.0,-28.65,153.62,64.4,9.17
guozhen,cn,76.0,1536188575.0,72.0,29.3,113.14,81.68,4.74
namibe,ao,88.0,1536188575.0,99.0,-15.19,12.15,64.13,12.8
kamaishi,jp,0.0,1536188575.0,74.0,39.28,141.86,74.93,7.2
turbat,pk,0.0,1536188576.0,92.0,26.0,63.05,66.56,2.62
port-gentil,ga,40.0,1536184800.0,88.0,-0.72,8.78,77.0,13.87
ostersund,se,8.0,1536186000.0,76.0,63.18,14.64,53.6,9.17
saldanha,za,32.0,1536188576.0,96.0,41.42,-6.55,57.11,3.74
nyurba,ru,92.0,1536188577.0,99.0,63.29,118.35,43.79,3.74
mocuba,mz,0.0,1536188577.0,63.0,-16.84,36.99,74.39,6.2
porto novo,cv,36.0,1536188577.0,100.0,-23.68,-45.44,51.08,2.51
matara,lk,80.0,1536188577.0,54.0,-13.74,-72.9,51.44,2.17
fereydun kenar,ir,20.0,1536188578.0,95.0,36.69,52.52,67.46,5.97
jacobina,br,24.0,1536188578.0,58.0,-11.19,-40.51,73.94,7.76
chino valley,us,1.0,1536186900.0,18.0,34.76,-112.45,87.8,3.4
mitsamiouli,km,0.0,1536188578.0,100.0,-11.38,43.28,74.66,7.76
vilhena,br,0.0,1536184800.0,38.0,-12.74,-60.15,77.0,6.93
codrington,ag,8.0,1536188578.0,96.0,-28.95,153.24,61.52,3.29
half moon bay,us,90.0,1536187200.0,82.0,37.46,-122.43,80.6,5.82
zhigansk,ru,92.0,1536188579.0,100.0,66.77,123.37,41.54,7.43
north myrtle beach,us,1.0,1536188100.0,68.0,33.83,-78.68,90.14,3.36
biltine,td,92.0,1536188579.0,52.0,14.53,20.93,81.59,6.76
oranjemund,na,100.0,1536188580.0,99.0,-28.55,16.43,55.22,12.91
bembereke,bj,64.0,1536188580.0,98.0,10.23,2.66,72.86,4.97
trairi,br,92.0,1536188580.0,99.0,-3.28,-39.27,79.43,17.27
grenada,us,90.0,1536185640.0,90.0,33.77,-89.81,78.08,4.7
pahrump,us,1.0,1536187740.0,16.0,36.21,-115.98,96.8,4.7
shangrao,cn,88.0,1536188581.0,94.0,28.45,117.97,74.66,2.73
elizabeth city,us,1.0,1536187860.0,70.0,36.3,-76.22,89.6,3.36
coquimbo,cl,20.0,1536184800.0,82.0,-29.95,-71.34,55.4,9.17
nioro,ml,76.0,1536188581.0,100.0,13.79,-15.05,73.31,2.73
somerset east,za,44.0,1536188582.0,72.0,-32.72,25.59,50.9,7.43
penzance,gb,0.0,1536184200.0,76.0,50.12,-5.53,55.4,11.41
aniva,ru,75.0,1536184800.0,88.0,46.71,142.53,66.2,11.18
solhan,tr,8.0,1536188643.0,71.0,38.97,41.05,47.57,2.17
omsukchan,ru,64.0,1536188643.0,72.0,62.53,155.8,47.48,5.64
alta floresta,br,0.0,1536188643.0,41.0,-9.87,-56.08,81.68,4.18
pacasmayo,pe,0.0,1536188644.0,97.0,-7.4,-79.57,62.42,15.82
tamandare,br,0.0,1536188644.0,38.0,-8.28,-70.75,77.36,5.08
suntar,ru,80.0,1536188644.0,100.0,62.16,117.65,44.87,3.96
port-de-bouc,fr,90.0,1536186600.0,100.0,43.4,4.98,71.6,4.7
bubaque,gw,92.0,1536188645.0,100.0,11.28,-15.83,78.71,12.01
puerto princesa,ph,90.0,1536184800.0,94.0,9.74,118.73,75.2,1.12
solwezi,zm,44.0,1536188645.0,41.0,-12.18,26.4,65.03,6.53
ginda,er,0.0,1536188645.0,93.0,30.69,78.49,56.48,1.83
red bluff,us,1.0,1536184440.0,20.0,40.18,-122.24,96.08,13.87
